var stations = {
"type": "FeatureCollection",
"crs": { "type": "name", "properties": { "name": "urn:ogc:def:crs:OGC:1.3:CRS84" } },
"features": [
{ "type": "Feature", "properties": { "SITE CODE": "05u", "SITE NAME": "Yelm WRF_Rain", "Address": "931 Northern Pacific Rd. SW", "Type": "Rain", "Inactive D": "Y", "Longitude": -122.59726, "Latitude": 46.95176, "Easting": "1116717.25", "Northing": 597154.9, "Well Total": null, "Ground Ele": "336\/102.41", "WY2016": 1 }, "geometry": { "type": "Point", "coordinates": [ -122.59726, 46.95176 ] } },
{ "type": "Feature", "properties": { "SITE CODE": "10u", "SITE NAME": "Meridian Rd_Rain", "Address": "7811 SE Meridian Rd.", "Type": "Rain", "Inactive D": "Y", "Longitude": -122.73863, "Latitude": 46.97402, "Easting": "1081657.9", "Northing": 606237.52, "Well Total": null, "Ground Ele": "248\/75.59", "WY2016": 1 }, "geometry": { "type": "Point", "coordinates": [ -122.73863, 46.97402 ] } },
{ "type": "Feature", "properties": { "SITE CODE": "11u", "SITE NAME": "NOAA Olympia Airport", "Address": "Olympia Airport", "Type": "Rain", "Inactive D": "Y", "Longitude": -122.90492, "Latitude": 46.97374, "Easting": "1040160.67", "Northing": 60736074.0, "Well Total": null, "Ground Ele": "186\/56.69", "WY2016": 1 }, "geometry": { "type": "Point", "coordinates": [ -122.90492, 46.97374 ] } },
{ "type": "Feature", "properties": { "SITE CODE": "11w", "SITE NAME": "Rainier Transfer Station", "Address": "13010 Rainier Acres Rd SE", "Type": "Rain", "Inactive D": "Y", "Longitude": -122.41546, "Latitude": 46.53559, "Easting": "477043.6", "Northing": 5193972.2, "Well Total": null, "Ground Ele": "512\/156.1", "WY2016": 1 }, "geometry": { "type": "Point", "coordinates": [ -122.69844, 46.8989 ] } },
{ "type": "Feature", "properties": { "SITE CODE": "13u", "SITE NAME": "Lake Lawrence_Rain", "Address": "15735 Topaz Dr. SE", "Type": "Rain", "Inactive D": "Y", "Longitude": -122.57851, "Latitude": 46.8578, "Easting": "1120497.49", "Northing": 56277.02, "Well Total": null, "Ground Ele": "431\/131.37", "WY2016": 1 }, "geometry": { "type": "Point", "coordinates": [ -122.57851, 46.8578 ] } },
{ "type": "Feature", "properties": { "SITE CODE": "18u", "SITE NAME": "Lacey Fire Dist. 3 Fire Station_Rain", "Address": "1231 Franz St. SE", "Type": "Rain", "Inactive D": "Y", "Longitude": -122.8161, "Latitude": 47.03678, "Easting": "1062999.2", "Northing": 629677.93, "Well Total": null, "Ground Ele": "187\/56.99", "WY2016": 1 }, "geometry": { "type": "Point", "coordinates": [ -122.8161, 47.03678 ] } },
{ "type": "Feature", "properties": { "SITE CODE": "18w", "SITE NAME": "WARC TC_Rain", "Address": "2420 NE Hogum Bay Rd.", "Type": "Rain", "Inactive D": "Y", "Longitude": -122.76009, "Latitude": 47.06578, "Easting": "1077262.14", "Northing": 639842.69, "Well Total": null, "Ground Ele": "231\/70.41", "WY2016": 1 }, "geometry": { "type": "Point", "coordinates": [ -122.76009, 47.06578 ] } },
{ "type": "Feature", "properties": { "SITE CODE": "20u", "SITE NAME": "Southbay Firestation_Rain", "Address": "3506 NE Schinke Rd.", "Type": "Rain", "Inactive D": "Y", "Longitude": -122.84514, "Latitude": 47.08173, "Easting": "1056248.9", "Northing": 646278.35, "Well Total": null, "Ground Ele": "165\/50.29", "WY2016": 1 }, "geometry": { "type": "Point", "coordinates": [ -122.84514, 47.08173 ] } },
{ "type": "Feature", "properties": { "SITE CODE": "23u", "SITE NAME": "Percival Creek, Bldg 4_Rain", "Address": "929 Lakeridge Dr. SW", "Type": "Rain", "Inactive D": "Y", "Longitude": -122.91413, "Latitude": 47.02865, "Easting": "1038496.06", "Northing": 627445.34, "Well Total": null, "Ground Ele": "181?\/55.2", "WY2016": 1 }, "geometry": { "type": "Point", "coordinates": [ -122.91413, 47.02865 ] } },
{ "type": "Feature", "properties": { "SITE CODE": "27u", "SITE NAME": "Boston Harbor_Rain", "Address": "7126 Boston Harbor Rd. NE", "Type": "Rain", "Inactive D": "Y", "Longitude": -122.90205, "Latitude": 47.13611, "Easting": "1042680.38", "Northing": 666527.47, "Well Total": null, "Ground Ele": "67\/20.42", "WY2016": 1 }, "geometry": { "type": "Point", "coordinates": [ -122.90205, 47.13611 ] } },
{ "type": "Feature", "properties": { "SITE CODE": "32u", "SITE NAME": "Kaiser Rd_Rain", "Address": "2630 Kaiser Rd. NW", "Type": "Rain", "Inactive D": "Y", "Longitude": -122.95583, "Latitude": 47.07019, "Easting": "1028551.63", "Northing": 642910.61, "Well Total": null, "Ground Ele": "143\/43.59", "WY2016": 0 }, "geometry": { "type": "Point", "coordinates": [ -122.95583, 47.07019 ] } },
{ "type": "Feature", "properties": { "SITE CODE": "33w", "SITE NAME": "Griffin FS_Rain", "Address": "3707 Steamboat Lp. NW", "Type": "Rain", "Inactive D": "Y", "Longitude": -123.01648, "Latitude": 47.08536, "Easting": "1013623.32", "Northing": 648916.07, "Well Total": null, "Ground Ele": "169\/51.51", "WY2016": 1 }, "geometry": { "type": "Point", "coordinates": [ -123.01648, 47.08536 ] } },
{ "type": "Feature", "properties": { "SITE CODE": "45u", "SITE NAME": "Littlerock_Rain", "Address": "128TH Ave SW", "Type": "Rain", "Inactive D": "Y", "Longitude": -123.02264, "Latitude": 46.90223, "Easting": "1009953.25", "Northing": 582208.39, "Well Total": null, "Ground Ele": "133\/40.54", "WY2016": 1 }, "geometry": { "type": "Point", "coordinates": [ -123.02264, 46.90223 ] } },
{ "type": "Feature", "properties": { "SITE CODE": "45w", "SITE NAME": "Rochester Drop Box_Rain", "Address": "12500 Sargent Rd. SW", "Type": "Rain", "Inactive D": "Y", "Longitude": -123.04808, "Latitude": 46.84762, "Easting": "1002954.38", "Northing": 562508.18, "Well Total": null, "Ground Ele": "161\/49.07", "WY2016": 1 }, "geometry": { "type": "Point", "coordinates": [ -123.04808, 46.84762 ] } },
{ "type": "Feature", "properties": { "SITE CODE": "55u", "SITE NAME": "Tenino_Rain", "Address": "1049 Garfield Ave E", "Type": "Rain", "Inactive D": "Y", "Longitude": -122.84066, "Latitude": 46.86129, "Easting": "1054977.79", "Northing": 56883.98, "Well Total": null, "Ground Ele": "276\/84.12", "WY2016": 1 }, "geometry": { "type": "Point", "coordinates": [ -122.84066, 46.86129 ] } },
{ "type": "Feature", "properties": { "SITE CODE": "59u", "SITE NAME": "Bloody Run USGS_Rain", "Address": "Skookumchuck Rd. SE", "Type": "Rain", "Inactive D": "Y", "Longitude": -122.73417, "Latitude": 46.79028, "Easting": "520289", "Northing": 5181893.0, "Well Total": null, "Ground Ele": "317\/96.62", "WY2016": 1 }, "geometry": { "type": "Point", "coordinates": [ -122.73417, 46.79028 ] } },
{ "type": "Feature", "properties": { "SITE CODE": "60u", "SITE NAME": "Bucoda USGS_Rain", "Address": "421 SE Troy Dr.", "Type": "Rain", "Inactive D": "Y", "Longitude": -122.92306, "Latitude": 46.77222, "Easting": "505875", "Northing": 5179855.0, "Well Total": null, "Ground Ele": "198\/60.35", "WY2016": 1 }, "geometry": { "type": "Point", "coordinates": [ -122.92306, 46.77222 ] } },
{ "type": "Feature", "properties": { "SITE CODE": "65u", "SITE NAME": "Grand Mound_Rain", "Address": "20248 SW Grand Mound Way", "Type": "Rain", "Inactive D": "Y", "Longitude": -123.02449, "Latitude": 46.79429, "Easting": "1008231.25", "Northing": 542880.37, "Well Total": null, "Ground Ele": "165\/50.29", "WY2016": 1 }, "geometry": { "type": "Point", "coordinates": [ -123.02449, 46.79429 ] } },
{ "type": "Feature", "properties": { "SITE CODE": "69u", "SITE NAME": "Summit Lake_Rain", "Address": "2815 Summit Lake Dr. NW", "Type": "Rain", "Inactive D": "Y", "Longitude": -123.13703, "Latitude": 47.05085, "Easting": "983188.25", "Northing": 637317.24, "Well Total": null, "Ground Ele": "427\/130.15", "WY2016": 1 }, "geometry": { "type": "Point", "coordinates": [ -123.13703, 47.05085 ] } },
{ "type": "Feature", "properties": { "SITE CODE": "04a", "SITE NAME": "Thompson Creek @ Highway 510", "Address": "14025 SE Yelm Hwy SE", "Type": "Stream\/Lake", "Inactive D": "Y", "Longitude": -122.64072, "Latitude": 46.96986, "Easting": "1106048.26", "Northing": 604045.63, "Well Total": null, "Ground Ele": "310\/94.49", "WY2016": null }, "geometry": { "type": "Point", "coordinates": [ -122.64072, 46.96986 ] } },
{ "type": "Feature", "properties": { "SITE CODE": "04b", "SITE NAME": "Thompson Creek @ 93rd Ave. SE, Yelm", "Address": "14436 SE 93rd Ave", "Type": "Stream\/Lake", "Inactive D": "Y", "Longitude": -122.63432, "Latitude": 46.9527, "Easting": "1107476.23", "Northing": 597744.1, "Well Total": null, "Ground Ele": "323\/9845", "WY2016": null }, "geometry": { "type": "Point", "coordinates": [ -122.63432, 46.9527 ] } },
{ "type": "Feature", "properties": { "SITE CODE": "05a", "SITE NAME": "Yelm Creek @ 103rd", "Address": "16530 103rd Ave SE", "Type": "Stream\/Lake", "Inactive D": "Y", "Longitude": -122.59005, "Latitude": 46.93822, "Easting": "1118387.69", "Northing": 592171.22, "Well Total": null, "Ground Ele": "335\/102.11", "WY2016": null }, "geometry": { "type": "Point", "coordinates": [ -122.59005, 46.93822 ] } },
{ "type": "Feature", "properties": { "SITE CODE": "05b", "SITE NAME": "Yelm Creek @ Harry Peterson Farm", "Address": "14632 SE Mud Run Rd.", "Type": "Stream\/Lake", "Inactive D": "Y", "Longitude": -122.62763, "Latitude": 46.9705, "Easting": "1109320.79", "Northing": 604190.56, "Well Total": null, "Ground Ele": "119\/36.27", "WY2016": null }, "geometry": { "type": "Point", "coordinates": [ -122.62763, 46.9705 ] } },
{ "type": "Feature", "properties": { "SITE CODE": "10a", "SITE NAME": "Eaton Creek @ Yelm Hwy", "Address": "9700 Yelm Hwy SE", "Type": "Stream\/Lake", "Inactive D": "Y", "Longitude": -122.73495, "Latitude": 46.9852, "Easting": "1082690.36", "Northing": 610287.96, "Well Total": null, "Ground Ele": "165\/50.29", "WY2016": null }, "geometry": { "type": "Point", "coordinates": [ -122.73495, 46.9852 ] } },
{ "type": "Feature", "properties": { "SITE CODE": "11a", "SITE NAME": "Deschutes River @ Waldrick Rd.", "Address": "5432 Waldrick Rd. SE", "Type": "Stream\/Lake", "Inactive D": "Y", "Longitude": -122.80999, "Latitude": 46.92026, "Easting": "1063276.1", "Northing": 587153.17, "Well Total": null, "Ground Ele": "231\/70.41", "WY2016": null }, "geometry": { "type": "Point", "coordinates": [ -122.80999, 46.92026 ] } },
{ "type": "Feature", "properties": { "SITE CODE": "17a", "SITE NAME": "Chambers Creek @ Rich Rd.", "Address": "6431 Rich Rd. SE", "Type": "Stream\/Lake", "Inactive D": "Y", "Longitude": -122.85523, "Latitude": 46.98975, "Easting": "1052732.77", "Northing": 612820.62, "Well Total": null, "Ground Ele": "167\/50.90", "WY2016": null }, "geometry": { "type": "Point", "coordinates": [ -122.85523, 46.98975 ] } },
{ "type": "Feature", "properties": { "SITE CODE": "18a", "SITE NAME": "Woodland Creek @ Pleasant Glade Rd.", "Address": "5110 Pleasant Glade Rd. NE", "Type": "Stream\/Lake", "Inactive D": "Y", "Longitude": -122.81723, "Latitude": 47.07178, "Easting": "1063091.01", "Northing": 642445.31, "Well Total": null, "Ground Ele": "28\/8.53", "WY2016": null }, "geometry": { "type": "Point", "coordinates": [ -122.81723, 47.07178 ] } },
{ "type": "Feature", "properties": { "SITE CODE": "20a", "SITE NAME": "Woodard Creek @ 36th Ave.", "Address": "3019 36th Ave NE", "Type": "Stream\/Lake", "Inactive D": "Y", "Longitude": -122.86034, "Latitude": 47.08331, "Easting": "1052380.11", "Northing": 646965.73, "Well Total": null, "Ground Ele": "116\/35.36", "WY2016": null }, "geometry": { "type": "Point", "coordinates": [ -122.86034, 47.08331 ] } },
{ "type": "Feature", "properties": { "SITE CODE": "23b", "SITE NAME": "Percival Creek @ SPSCC", "Address": "Community College Drive", "Type": "Stream\/Lake", "Inactive D": "Y", "Longitude": -122.93222, "Latitude": 47.02253, "Easting": "1033896.88", "Northing": 625355.03, "Well Total": null, "Ground Ele": "119\/36.27", "WY2016": null }, "geometry": { "type": "Point", "coordinates": [ -122.93222, 47.02253 ] } },
{ "type": "Feature", "properties": { "SITE CODE": "24a", "SITE NAME": "McLane Creek @ Delphi Rd.", "Address": "1725 Delphi Rd. SW", "Type": "Stream\/Lake", "Inactive D": "Y", "Longitude": -122.99051, "Latitude": 47.03175, "Easting": "1019472.39", "Northing": 629167.6, "Well Total": null, "Ground Ele": "8\/2.44", "WY2016": null }, "geometry": { "type": "Point", "coordinates": [ -122.99051, 47.03175 ] } },
{ "type": "Feature", "properties": { "SITE CODE": "32b", "SITE NAME": "Green Cove Creek @ Butler Cove FS", "Address": "3210 36th Ave NW", "Type": "Stream\/Lake", "Inactive D": "Y", "Longitude": -122.95047, "Latitude": 47.08337, "Easting": "1030036.19", "Northing": 647674.72, "Well Total": null, "Ground Ele": "107\/32.61", "WY2016": null }, "geometry": { "type": "Point", "coordinates": [ -122.95047, 47.08337 ] } },
{ "type": "Feature", "properties": { "SITE CODE": "43a", "SITE NAME": "Pants Creek @ Waddell Ck Rd. SW", "Address": "8639 Waddell Ck. Rd. SW", "Type": "Stream\/Lake", "Inactive D": "Y", "Longitude": -123.03942, "Latitude": 46.96453, "Easting": "1006494.25", "Northing": 605055.03, "Well Total": null, "Ground Ele": "233\/71.02", "WY2016": null }, "geometry": { "type": "Point", "coordinates": [ -123.03942, 46.96453 ] } },
{ "type": "Feature", "properties": { "SITE CODE": "44a", "SITE NAME": "Black Lake Ditch @ Belmore Rd", "Address": "Black Lake-Belmore Rd. SW", "Type": "Stream\/Lake", "Inactive D": "Y", "Longitude": -122.96496, "Latitude": 47.00981, "Easting": "1025590.81", "Northing": 620969.44, "Well Total": null, "Ground Ele": "124\/37.79", "WY2016": null }, "geometry": { "type": "Point", "coordinates": [ -122.96496, 47.00981 ] } },
{ "type": "Feature", "properties": { "SITE CODE": "45a", "SITE NAME": "Black River @ 110th Ave.", "Address": "110th Ave SW", "Type": "Stream\/Lake", "Inactive D": "Y", "Longitude": -123.00811, "Latitude": 46.92835, "Easting": "101.3886.1", "Northing": 591614.33, "Well Total": null, "Ground Ele": "124\/37.79", "WY2016": null }, "geometry": { "type": "Point", "coordinates": [ -123.00811, 46.92835 ] } },
{ "type": "Feature", "properties": { "SITE CODE": "45b", "SITE NAME": "Black River @ 128th Ave.", "Address": "128th Ave SW", "Type": "Stream\/Lake", "Inactive D": "Y", "Longitude": -123.02375, "Latitude": 46.90177, "Easting": "1009670.8", "Northing": 582050.84, "Well Total": null, "Ground Ele": "121\/36.88", "WY2016": null }, "geometry": { "type": "Point", "coordinates": [ -123.02375, 46.90177 ] } },
{ "type": "Feature", "properties": { "SITE CODE": "52a", "SITE NAME": "Salmon Creek @ Littlerock Rd SW", "Address": "10139 Littlerock Rd SW", "Type": "Stream\/Lake", "Inactive D": "Y", "Longitude": -122.98752, "Latitude": 46.94034, "Easting": "1019166.55", "Northing": 595823.38, "Well Total": null, "Ground Ele": "158\/48.16", "WY2016": null }, "geometry": { "type": "Point", "coordinates": [ -122.98752, 46.94034 ] } },
{ "type": "Feature", "properties": { "SITE CODE": "55a", "SITE NAME": "Scatter Creek @ James Rd.", "Address": "8941 James Rd. SW", "Type": "Stream\/Lake", "Inactive D": "Y", "Longitude": -123.07229, "Latitude": 46.80698, "Easting": "996416.33", "Northing": 547891.78, "Well Total": null, "Ground Ele": "136\/41.45", "WY2016": null }, "geometry": { "type": "Point", "coordinates": [ -123.07229, 46.80698 ] } },
{ "type": "Feature", "properties": { "SITE CODE": "65a", "SITE NAME": "Prairie Creek @ Old Hwy 99", "Address": "20125 Old Hwy 99 SW", "Type": "Stream\/Lake", "Inactive D": "Y", "Longitude": -123.01228, "Latitude": 46.79674, "Easting": "1011318.5", "Northing": 543675.73, "Well Total": null, "Ground Ele": "165\/50.29", "WY2016": null }, "geometry": { "type": "Point", "coordinates": [ -123.01228, 46.79674 ] } },
{ "type": "Feature", "properties": { "SITE CODE": "TWOF-01", "SITE NAME": "Tanglewilde Outfall @ Martin Way", "Address": "6121 E Martin Way", "Type": "Stream\/Lake", "Inactive D": "Y", "Longitude": -122.80185, "Latitude": 47.04991, "Easting": "1066688.95", "Northing": 634358.45, "Well Total": null, "Ground Ele": "111\/33.83", "WY2016": null }, "geometry": { "type": "Point", "coordinates": [ -122.80185, 47.04991 ] } },
{ "type": "Feature", "properties": { "SITE CODE": "TWOF-02", "SITE NAME": "Tanglewilde Outfall @ Husky Way & School St", "Address": "7505 Husky Way SE", "Type": "Stream\/Lake", "Inactive D": "Y", "Longitude": -122.78003, "Latitude": 47.04964, "Easting": "1072123.67", "Northing": 634105.17, "Well Total": null, "Ground Ele": "181\/55.17", "WY2016": null }, "geometry": { "type": "Point", "coordinates": [ -122.78003, 47.04964 ] } },
{ "type": "Feature", "properties": { "SITE CODE": "TWOF-03", "SITE NAME": "Tanglewilde Outfall @ Husky Way & Wildcat", "Address": "7123 Husky Way SE", "Type": "Stream\/Lake", "Inactive D": "Y", "Longitude": -122.78601, "Latitude": 47.05024, "Easting": "1070640.77", "Northing": 634364.09, "Well Total": null, "Ground Ele": "175\/53.34", "WY2016": null }, "geometry": { "type": "Point", "coordinates": [ -122.78601, 47.05024 ] } },
{ "type": "Feature", "properties": { "SITE CODE": "TWB1", "SITE NAME": "Huskey Way SE & Carpenter Rd SE", "Address": "6529 Husky Way SE", "Type": "Ground", "Inactive D": "Y", "Longitude": -122.79582, "Latitude": 47.04977, "Easting": "1068190.37", "Northing": 634264.73, "Well Total": 23.98, "Ground Ele": "138\/42.06", "WY2016": null }, "geometry": { "type": "Point", "coordinates": [ -122.79582, 47.04977 ] } },
{ "type": "Feature", "properties": { "SITE CODE": "TWB2", "SITE NAME": "6731 Kinwood St SE", "Address": "6731 Kinwood St. SE", "Type": "Ground", "Inactive D": "Y", "Longitude": -122.79155, "Latitude": 47.05004, "Easting": "1069258.1", "Northing": 634333.73, "Well Total": 19.7, "Ground Ele": "166\/50.59", "WY2016": null }, "geometry": { "type": "Point", "coordinates": [ -122.79155, 47.05004 ] } },
{ "type": "Feature", "properties": { "SITE CODE": "TWB3", "SITE NAME": "7309 Husky Way SE", "Address": "7309 Husky Way SE", "Type": "Ground", "Inactive D": "Y", "Longitude": -122.78251, "Latitude": 47.04998, "Easting": "1071509.62", "Northing": 634244.72, "Well Total": 16.1, "Ground Ele": "178\/54.25", "WY2016": null }, "geometry": { "type": "Point", "coordinates": [ -122.78251, 47.04998 ] } },
{ "type": "Feature", "properties": { "SITE CODE": "TWB4", "SITE NAME": "7653 Husky Way SE", "Address": "7653 Husky Way SE", "Type": "Ground", "Inactive D": "Y", "Longitude": -122.77772, "Latitude": 47.04952, "Easting": "1072698.3", "Northing": 634043.93, "Well Total": 9.1, "Ground Ele": "188\/57.30", "WY2016": null }, "geometry": { "type": "Point", "coordinates": [ -122.77772, 47.04952 ] } },
{ "type": "Feature", "properties": { "SITE CODE": "TWB5", "SITE NAME": "404 Choker St SE", "Address": "404 Choker St. SE", "Type": "Ground", "Inactive D": "Y", "Longitude": -122.77463, "Latitude": 47.04982, "Easting": "1073470.45", "Northing": 634129.14, "Well Total": 12.85, "Ground Ele": "196\/59.74", "WY2016": null }, "geometry": { "type": "Point", "coordinates": [ -122.77463, 47.04982 ] } },
{ "type": "Feature", "properties": { "SITE CODE": "TWB6", "SITE NAME": "Husky Way SE & Wildcat St SE", "Address": "414 SE Wildcat Dr.", "Type": "Ground", "Inactive D": "Y", "Longitude": -122.78507, "Latitude": 47.05019, "Easting": "1070873.6", "Northing": 634338.61, "Well Total": 10.98, "Ground Ele": "176\/53.64", "WY2016": null }, "geometry": { "type": "Point", "coordinates": [ -122.78507, 47.05019 ] } },
{ "type": "Feature", "properties": { "SITE CODE": "TWB7", "SITE NAME": "454 Cougar St SE", "Address": "454 Cougar St. SE", "Type": "Ground", "Inactive D": "Y", "Longitude": -122.78404, "Latitude": 47.04861, "Easting": "1071114.13", "Northing": 633755.63, "Well Total": 11.44, "Ground Ele": "197\/60.05", "WY2016": null }, "geometry": { "type": "Point", "coordinates": [ -122.78404, 47.04861 ] } },
{ "type": "Feature", "properties": { "SITE CODE": "TWB8", "SITE NAME": "455 Bulldog St SE", "Address": "455 Bulldog St. SE", "Type": "Ground", "Inactive D": "Y", "Longitude": -122.78673, "Latitude": 47.04816, "Easting": "1070438.23", "Northing": 633612.4, "Well Total": 12.3, "Ground Ele": "200\/60.96", "WY2016": null }, "geometry": { "type": "Point", "coordinates": [ -122.78673, 47.04816 ] } },
{ "type": "Feature", "properties": { "SITE CODE": "TWB10", "SITE NAME": "Choker Ct & Bobcat Dr SE", "Address": "422 Choker Ct. SE", "Type": "Ground", "Inactive D": "Y", "Longitude": -122.77474, "Latitude": 47.0488, "Easting": "1073432.19", "Northing": 633760.64, "Well Total": 11.84, "Ground Ele": "202\/61.57", "WY2016": null }, "geometry": { "type": "Point", "coordinates": [ -122.77474, 47.0488 ] } },
{ "type": "Feature", "properties": { "SITE CODE": "TWB11", "SITE NAME": "311 Ranger Dr SE", "Address": "311 Ranger Dr. SE", "Type": "Ground", "Inactive D": "Y", "Longitude": -122.78147, "Latitude": 47.05114, "Easting": "1071781.81", "Northing": 634662.15, "Well Total": 11.8, "Ground Ele": "198\/60.35", "WY2016": null }, "geometry": { "type": "Point", "coordinates": [ -122.78147, 47.05114 ] } },
{ "type": "Feature", "properties": { "SITE CODE": "ET1", "SITE NAME": "8538 9th Way SE", "Address": "8530 9th Way SE", "Type": "Ground", "Inactive D": "Y", "Longitude": -122.7577, "Latitude": 47.03996, "Easting": "1077587.92", "Northing": 630413.67, "Well Total": 20.3, "Ground Ele": "219\/66.75", "WY2016": null }, "geometry": { "type": "Point", "coordinates": [ -122.7577, 47.03996 ] } },
{ "type": "Feature", "properties": { "SITE CODE": "ET2", "SITE NAME": "802 Torrey St SE(DEACTIVATED)", "Address": "802 Torrey St. SE(DEACTIVATED)", "Type": "Ground", "Inactive D": "N", "Longitude": -122.7566, "Latitude": 47.04101, "Easting": "1077871.3", "Northing": 630787.64, "Well Total": 19.5, "Ground Ele": "221\/67.36", "WY2016": null }, "geometry": { "type": "Point", "coordinates": [ -122.7566, 47.04101 ] } },
{ "type": "Feature", "properties": { "SITE CODE": "ET3", "SITE NAME": "8th Way & Tanbark St SE(inactive 1\/24\/11)", "Address": "816 Tanbark St. SE", "Type": "Ground", "Inactive D": "N", "Longitude": -122.75501, "Latitude": 47.04248, "Easting": "1078282.59", "Northing": 631312.92, "Well Total": 19.5, "Ground Ele": "222\/67.67", "WY2016": null }, "geometry": { "type": "Point", "coordinates": [ -122.75501, 47.04248 ] } },
{ "type": "Feature", "properties": { "SITE CODE": "ET4", "SITE NAME": "902 Tanbark St SE(inactive 1\/24\/11)", "Address": "902 Tanbark St. SE", "Type": "Ground", "Inactive D": "N", "Longitude": -122.75505, "Latitude": 47.04079, "Easting": "1078254.72", "Northing": 630697.98, "Well Total": 20.2, "Ground Ele": "229\/69.79", "WY2016": null }, "geometry": { "type": "Point", "coordinates": [ -122.75505, 47.04079 ] } },
{ "type": "Feature", "properties": { "SITE CODE": "ET5", "SITE NAME": "918 Tanbark St SE(inactive 1\/24\/11)", "Address": "918 Tanbark St. SE", "Type": "Ground", "Inactive D": "N", "Longitude": -122.75499, "Latitude": 47.03984, "Easting": "1078260.01", "Northing": 630351.41, "Well Total": 24.3, "Ground Ele": "237\/72.24", "WY2016": null }, "geometry": { "type": "Point", "coordinates": [ -122.75499, 47.03984 ] } },
{ "type": "Feature", "properties": { "SITE CODE": "ET6", "SITE NAME": "8507 9th Ave SE(inactive 1\/24\/11)", "Address": "8507 9th Ave SE", "Type": "Ground", "Inactive D": "N", "Longitude": -122.7591, "Latitude": 47.04078, "Easting": "1077245.74", "Northing": 630723.76, "Well Total": 18.9, "Ground Ele": "229\/69.79", "WY2016": null }, "geometry": { "type": "Point", "coordinates": [ -122.7591, 47.04078 ] } },
{ "type": "Feature", "properties": { "SITE CODE": "HFB-1", "SITE NAME": "628 Hidden Forest Dr SE", "Address": "628 Hidden Forest Dr. SE", "Type": "Ground", "Inactive D": "Y", "Longitude": -122.75095, "Latitude": 47.05128, "Easting": "1079387.58", "Northing": 634491.68, "Well Total": 33.85, "Ground Ele": "202.3\/61.66", "WY2016": null }, "geometry": { "type": "Point", "coordinates": [ -122.75095, 47.05128 ] } },
{ "type": "Feature", "properties": { "SITE CODE": "HFB-2", "SITE NAME": "524 Hidden Forest Dr SE", "Address": "524 Hidden Forest Dr. SE", "Type": "Ground", "Inactive D": "Y", "Longitude": -122.75026, "Latitude": 47.05348, "Easting": "1079580.97", "Northing": 635290.06, "Well Total": 12.9, "Ground Ele": "202.16\/61.62", "WY2016": null }, "geometry": { "type": "Point", "coordinates": [ -122.75026, 47.05348 ] } },
{ "type": "Feature", "properties": { "SITE CODE": "HFB-3", "SITE NAME": "8836 6th Way SE", "Address": "8836 6th Way SE", "Type": "Ground", "Inactive D": "Y", "Longitude": -122.75228, "Latitude": 47.05149, "Easting": "1079057.73", "Northing": 634580.25, "Well Total": 34.75, "Ground Ele": "205.29\/62.57", "WY2016": null }, "geometry": { "type": "Point", "coordinates": [ -122.75228, 47.05149 ] } },
{ "type": "Feature", "properties": { "SITE CODE": "DP1", "SITE NAME": "5013 Donnelly Dr SE", "Address": "5013 Donnelly Dr. SE", "Type": "Ground", "Inactive D": "Y", "Longitude": -122.84259, "Latitude": 47.00298, "Easting": "1056030.35", "Northing": 617551.01, "Well Total": 19.9, "Ground Ele": "201\/61.26", "WY2016": null }, "geometry": { "type": "Point", "coordinates": [ -122.84259, 47.00298 ] } },
{ "type": "Feature", "properties": { "SITE CODE": "DP2", "SITE NAME": "3986 Woodlawn Dr SE", "Address": "3986 Woodlawn Dr. SE", "Type": "Ground", "Inactive D": "Y", "Longitude": -122.83702, "Latitude": 47.00013, "Easting": "1057388.47", "Northing": 616471.36, "Well Total": 26.6, "Ground Ele": "211\/64.31", "WY2016": null }, "geometry": { "type": "Point", "coordinates": [ -122.83702, 47.00013 ] } },
{ "type": "Feature", "properties": { "SITE CODE": "DP3", "SITE NAME": "5535 Donnelly Dr SE", "Address": "5535 Donnelly Dr. SE", "Type": "Ground", "Inactive D": "Y", "Longitude": -122.84124, "Latitude": 46.9977, "Easting": "1056309.38", "Northing": 615616.37, "Well Total": 19.1, "Ground Ele": "199\/60.66", "WY2016": null }, "geometry": { "type": "Point", "coordinates": [ -122.84124, 46.9977 ] } },
{ "type": "Feature", "properties": { "SITE CODE": "ECY1", "SITE NAME": "5143 Windermere Dr SE", "Address": "5143 Windermere Dr. SE", "Type": "Ground", "Inactive D": "Y", "Longitude": -122.84091, "Latitude": 47.00126, "Easting": "1056430.66", "Northing": 616911.33, "Well Total": 57.4, "Ground Ele": "209\/63.70", "WY2016": null }, "geometry": { "type": "Point", "coordinates": [ -122.84091, 47.00126 ] } },
{ "type": "Feature", "properties": { "SITE CODE": "ECY2", "SITE NAME": "5535 Donnelly Dr SE", "Address": "5535 Donnelly Dr. SE", "Type": "Ground", "Inactive D": "Y", "Longitude": -122.84126, "Latitude": 46.9971, "Easting": "1056304.6", "Northing": 615618.62, "Well Total": 44.5, "Ground Ele": "199\/60.66", "WY2016": null }, "geometry": { "type": "Point", "coordinates": [ -122.84126, 46.9971 ] } },
{ "type": "Feature", "properties": { "SITE CODE": "ABS362", "SITE NAME": "5143 Windermere Dr SE", "Address": "5143 Windermere Dr. SE", "Type": "Ground", "Inactive D": "Y", "Longitude": -122.84091, "Latitude": 47.00126, "Easting": "1056430.66", "Northing": 616911.33, "Well Total": 57.4, "Ground Ele": "209\/63.70", "WY2016": null }, "geometry": { "type": "Point", "coordinates": [ -122.84091, 47.00126 ] } },
{ "type": "Feature", "properties": { "SITE CODE": "LRS-01a", "SITE NAME": "6841 Foster Dr SW", "Address": "6841 Foster Dr. SW", "Type": "Ground", "Inactive D": "Y", "Longitude": -122.94353, "Latitude": 46.98527, "Easting": "1030656.85", "Northing": 611857.59, "Well Total": 23.42, "Ground Ele": "190.6\/58.09", "WY2016": null }, "geometry": { "type": "Point", "coordinates": [ -122.94353, 46.98527 ] } },
{ "type": "Feature", "properties": { "SITE CODE": "LRS-07a", "SITE NAME": "3804 93rd Ave SW", "Address": "3804 93rd Ave SW", "Type": "Ground", "Inactive D": "Y", "Longitude": -122.96455, "Latitude": 46.95285, "Easting": "1025044.2", "Northing": 600203.7, "Well Total": 22.6, "Ground Ele": "177.98\/54.25", "WY2016": null }, "geometry": { "type": "Point", "coordinates": [ -122.96455, 46.95285 ] } },
{ "type": "Feature", "properties": { "SITE CODE": "LRS-088", "SITE NAME": "8943 Walter Ct SW", "Address": "8943 Walter Ct. SW", "Type": "Ground", "Inactive D": "Y", "Longitude": -122.92033, "Latitude": 46.95722, "Easting": "1036129.9", "Northing": 601454.33, "Well Total": 31.4, "Ground Ele": "191.11\/58.25", "WY2016": null }, "geometry": { "type": "Point", "coordinates": [ -122.92033, 46.95722 ] } },
{ "type": "Feature", "properties": { "SITE CODE": "LRS-09", "SITE NAME": "2729 93rd Ave SW (Lathrop)", "Address": "2729 93rd Ave SW (Lathrop)", "Type": "Ground", "Inactive D": "Y", "Longitude": -122.94228, "Latitude": 46.95224, "Easting": "1030595.66", "Northing": 599809.73, "Well Total": 22.4, "Ground Ele": "193.64\/59.02", "WY2016": null }, "geometry": { "type": "Point", "coordinates": [ -122.94228, 46.95224 ] } },
{ "type": "Feature", "properties": { "SITE CODE": "LRS-11a", "SITE NAME": "9605 Tilley Rd S", "Address": "9605 Tilley Rd. S", "Type": "Ground", "Inactive D": "Y", "Longitude": -122.90798, "Latitude": 46.94846, "Easting": "1039114.36", "Northing": 598165.13, "Well Total": 27.7, "Ground Ele": "205.9\/62.76", "WY2016": null }, "geometry": { "type": "Point", "coordinates": [ -122.90798, 46.94846 ] } },
{ "type": "Feature", "properties": { "SITE CODE": "LRS-12", "SITE NAME": "9411 SW Kimmie St SW", "Address": "9411 SW Kimmie St. SW", "Type": "Ground", "Inactive D": "Y", "Longitude": -122.92912, "Latitude": 46.95055, "Easting": "1033860.65", "Northing": 599091.05, "Well Total": 22.4, "Ground Ele": "197.48\/60.19", "WY2016": null }, "geometry": { "type": "Point", "coordinates": [ -122.92912, 46.95055 ] } },
{ "type": "Feature", "properties": { "SITE CODE": "MW-01", "SITE NAME": "10415 Littlerock Rd SW", "Address": "10415 Littlerock Rd. SW", "Type": "Ground", "Inactive D": "Y", "Longitude": -122.99057, "Latitude": 46.93789, "Easting": "1018377.88", "Northing": 594953.22, "Well Total": 29.33, "Ground Ele": "160.47\/48.91", "WY2016": null }, "geometry": { "type": "Point", "coordinates": [ -122.99057, 46.93789 ] } },
{ "type": "Feature", "properties": { "SITE CODE": "MW-02", "SITE NAME": "10415 Littlerock Rd SW", "Address": "10415 Littlerock Rd. SW", "Type": "Ground", "Inactive D": "Y", "Longitude": -122.99057, "Latitude": 46.93787, "Easting": "1018377.88", "Northing": 594946.38, "Well Total": 11.35, "Ground Ele": "160.13\/48.81", "WY2016": null }, "geometry": { "type": "Point", "coordinates": [ -122.99057, 46.93787 ] } },
{ "type": "Feature", "properties": { "SITE CODE": "MW-03", "SITE NAME": "3623 104TH Ave SW (Jones)", "Address": "3623 104TH Ave SW (Jones)", "Type": "Ground", "Inactive D": "Y", "Longitude": -122.96041, "Latitude": 46.93629, "Easting": "1025889.11", "Northing": 594133.58, "Well Total": 16.6, "Ground Ele": "185.65\/56.59", "WY2016": null }, "geometry": { "type": "Point", "coordinates": [ -122.96041, 46.93629 ] } },
{ "type": "Feature", "properties": { "SITE CODE": "MW-05", "SITE NAME": "800 93rd Ave SE", "Address": "800 93rd Ave SE", "Type": "Ground", "Inactive D": "Y", "Longitude": -122.89429, "Latitude": 46.95283, "Easting": "1042582.72", "Northing": 599656.55, "Well Total": 24.94, "Ground Ele": "192.12\/58.56", "WY2016": null }, "geometry": { "type": "Point", "coordinates": [ -122.89429, 46.95283 ] } },
{ "type": "Feature", "properties": { "SITE CODE": "SSW-01", "SITE NAME": "Stuart St. Well", "Address": "1724 Stuart St. NE", "Type": "Ground", "Inactive D": "Y", "Longitude": -122.83818, "Latitude": 47.05995, "Easting": "1057745.55", "Northing": 638286.81, "Well Total": 32.2, "Ground Ele": "210.12\/64.04", "WY2016": null }, "geometry": { "type": "Point", "coordinates": [ -122.83818, 47.05995 ] } },
{ "type": "Feature", "properties": { "SITE CODE": "SLB-01", "SITE NAME": "Scott Lake Well-1", "Address": "11604 Scott Creek Dr. SW", "Type": "Ground", "Inactive D": "Y", "Longitude": -122.94016, "Latitude": 46.91956, "Easting": "1030757.03", "Northing": 587879.1, "Well Total": 11.8, "Ground Ele": "191\/58.22", "WY2016": null }, "geometry": { "type": "Point", "coordinates": [ -122.94016, 46.91956 ] } },
{ "type": "Feature", "properties": { "SITE CODE": "SLB-02", "SITE NAME": "Scott Lake Well-2", "Address": "12154 Scott Creek Loop SW", "Type": "Ground", "Inactive D": "Y", "Longitude": -122.93299, "Latitude": 46.91354, "Easting": "1032478.67", "Northing": 585629.8, "Well Total": 16.0, "Ground Ele": "193\/58.83", "WY2016": null }, "geometry": { "type": "Point", "coordinates": [ -122.93299, 46.91354 ] } },
{ "type": "Feature", "properties": { "SITE CODE": "D-01", "SITE NAME": "Deschutes Wetland Well", "Address": "2005 65th Ave SE", "Type": "Ground", "Inactive D": "Y", "Longitude": null, "Latitude": null, "Easting": null, "Northing": null, "Well Total": 13.59, "Ground Ele": null, "WY2016": null }, "geometry": null },
{ "type": "Feature", "properties": { "SITE CODE": "D-02", "SITE NAME": "Deschutes Wetland Well", "Address": "2005 65th Ave SE", "Type": "Ground", "Inactive D": "Y", "Longitude": null, "Latitude": null, "Easting": null, "Northing": null, "Well Total": 14.18, "Ground Ele": null, "WY2016": null }, "geometry": null },
{ "type": "Feature", "properties": { "SITE CODE": "D-03", "SITE NAME": "Deschutes Wetland Well", "Address": "2005 65th Ave SE", "Type": "Ground", "Inactive D": "Y", "Longitude": null, "Latitude": null, "Easting": null, "Northing": null, "Well Total": 12.98, "Ground Ele": null, "WY2016": null }, "geometry": null },
{ "type": "Feature", "properties": { "SITE CODE": "D-04", "SITE NAME": "Deschutes Wetland Well", "Address": "2005 65th Ave SE", "Type": "Ground", "Inactive D": "Y", "Longitude": null, "Latitude": null, "Easting": null, "Northing": null, "Well Total": 12.05, "Ground Ele": null, "WY2016": null }, "geometry": null },
{ "type": "Feature", "properties": { "SITE CODE": "D-05", "SITE NAME": "Deschutes Wetland Well", "Address": "2005 65th Ave SE", "Type": "Ground", "Inactive D": "Y", "Longitude": null, "Latitude": null, "Easting": null, "Northing": null, "Well Total": 12.58, "Ground Ele": null, "WY2016": null }, "geometry": null },
{ "type": "Feature", "properties": { "SITE CODE": "D-06", "SITE NAME": "Deschutes Wetland Well", "Address": "2005 65th Ave SE", "Type": "Ground", "Inactive D": "Y", "Longitude": null, "Latitude": null, "Easting": null, "Northing": null, "Well Total": 15.0, "Ground Ele": null, "WY2016": null }, "geometry": null },
{ "type": "Feature", "properties": { "SITE CODE": "Y01", "SITE NAME": "Southworth Elem School", "Address": "14025 Yelm Hwy SE", "Type": "Ground", "Inactive D": "Y", "Longitude": -122.64161, "Latitude": 46.96972, "Easting": "1105824.09", "Northing": 603999.3, "Well Total": 17.84, "Ground Ele": "317\/96.62", "WY2016": null }, "geometry": { "type": "Point", "coordinates": [ -122.64161, 46.96972 ] } },
{ "type": "Feature", "properties": { "SITE CODE": "Y02", "SITE NAME": "89th Ave SE Thompson Creek", "Address": "14103 SE 89th Ave", "Type": "Ground", "Inactive D": "Y", "Longitude": -122.63805, "Latitude": 46.95861, "Easting": "1106603.83", "Northing": 599926.16, "Well Total": 15.75, "Ground Ele": "320\/97.54", "WY2016": null }, "geometry": { "type": "Point", "coordinates": [ -122.63805, 46.95861 ] } },
{ "type": "Feature", "properties": { "SITE CODE": "Y03", "SITE NAME": "Thompson Creek @ 93rd Ave", "Address": "14436 SE 93rd Ave", "Type": "Ground", "Inactive D": "Y", "Longitude": -122.63426, "Latitude": 46.95268, "Easting": "1107491.43", "Northing": 597737.98, "Well Total": 9.4, "Ground Ele": "325\/99.06", "WY2016": null }, "geometry": { "type": "Point", "coordinates": [ -122.63426, 46.95268 ] } },
{ "type": "Feature", "properties": { "SITE CODE": "Y04", "SITE NAME": "Thompson Creek @ SW Berry Valley Rd", "Address": "14747 Berry Valley Rd. SE", "Type": "Ground", "Inactive D": "Y", "Longitude": -122.63048, "Latitude": 46.94776, "Easting": "1108385.15", "Northing": 595916.44, "Well Total": 6.9, "Ground Ele": "326\/99.36", "WY2016": null }, "geometry": { "type": "Point", "coordinates": [ -122.63048, 46.94776 ] } },
{ "type": "Feature", "properties": { "SITE CODE": "Y05", "SITE NAME": "Yelm Creek @ 16947 103rd Ave SE", "Address": "16947 103rd Ave SE", "Type": "Ground", "Inactive D": "Y", "Longitude": -122.58047, "Latitude": 46.93807, "Easting": "1120777.13", "Northing": 592050.16, "Well Total": 11.56, "Ground Ele": "338\/103.02", "WY2016": null }, "geometry": { "type": "Point", "coordinates": [ -122.58047, 46.93807 ] } },
{ "type": "Feature", "properties": { "SITE CODE": "Y06", "SITE NAME": "Crystal Springs Ln SE", "Address": "9002 Crystal Springs Rd. SE", "Type": "Ground", "Inactive D": "Y", "Longitude": -122.6055, "Latitude": 46.95793, "Easting": "1114721.41", "Northing": 599458.4, "Well Total": 12.6, "Ground Ele": "321\/97.84", "WY2016": null }, "geometry": { "type": "Point", "coordinates": [ -122.6055, 46.95793 ] } },
{ "type": "Feature", "properties": { "SITE CODE": "Y07", "SITE NAME": "Yelm Creek @ Crystal Springs Rd", "Address": "9616 Crystal Springs Rd. SE", "Type": "Ground", "Inactive D": "Y", "Longitude": -122.60625, "Latitude": 46.94758, "Easting": "1114433.07", "Northing": 595689.64, "Well Total": 14.9, "Ground Ele": "328\/99.97", "WY2016": null }, "geometry": { "type": "Point", "coordinates": [ -122.60625, 46.94758 ] } },
{ "type": "Feature", "properties": { "SITE CODE": "24u", "SITE NAME": "24u McLane\/Black Lake Firestation 91 \n", "Address": "125 Delphi Rd NW", "Type": "Rain", "Inactive D": null, "Longitude": null, "Latitude": null, "Easting": null, "Northing": null, "Well Total": null, "Ground Ele": null, "WY2016": 1 }, "geometry": { "type": "Point", "coordinates": [ -122.97679229471035, 47.046007750900031 ] } }
]
}
